[
  {
    "municipio": "Rio Branco",
    "uf": "AC",
    "lat": -9.9747,
    "lon": -67.8243,
    "distancia_fortaleza_km": 3304.6
  },
  {
    "municipio": "Cruzeiro do Sul",
    "uf": "AC",
    "lat": -7.6275,
    "lon": -72.6786,
    "distancia_fortaleza_km": 3800.7
  },
  {
    "municipio": "Epitaciolândia",
    "uf": "AC",
    "lat": -11.0269,
    "lon": -68.7392,
    "distancia_fortaleza_km": 3424.7
  },
  {
    "municipio": "Manaus",
    "uf": "AM",
    "lat": -3.119,
    "lon": -60.0217,
    "distancia_fortaleza_km": 2384.9
  },
  {
    "municipio": "Tabatinga",
    "uf": "AM",
    "lat": -4.2542,
    "lon": -69.9381,
    "distancia_fortaleza_km": 3482.8
  },
  {
    "municipio": "Humaitá",
    "uf": "AM",
    "lat": -7.5061,
    "lon": -63.0211,
    "distancia_fortaleza_km": 2740.6
  },
  {
    "municipio": "Tefé",
    "uf": "AM",
    "lat": -3.3543,
    "lon": -64.7113,
    "distancia_fortaleza_km": 2904.4
  },
  {
    "municipio": "Macapá",
    "uf": "AP",
    "lat": 0.0349,
    "lon": -51.0694,
    "distancia_fortaleza_km": 1453.1
  },
  {
    "municipio": "Oiapoque",
    "uf": "AP",
    "lat": 3.8419,
    "lon": -51.8333,
    "distancia_fortaleza_km": 1699.2
  },
  {
    "municipio": "Barreiras",
    "uf": "BA",
    "lat": -12.1525,
    "lon": -44.99,
    "distancia_fortaleza_km": 1176.0
  },
  {
    "municipio": "Porto Seguro",
    "uf": "BA",
    "lat": -16.4497,
    "lon": -39.0644,
    "distancia_fortaleza_km": 1416.9
  },
  {
    "municipio": "Jataí",
    "uf": "GO",
    "lat": -17.8814,
    "lon": -51.7144,
    "distancia_fortaleza_km": 2130.3
  },
  {
    "municipio": "São Luís",
    "uf": "MA",
    "lat": -2.5307,
    "lon": -44.3068,
    "distancia_fortaleza_km": 653.4
  },
  {
    "municipio": "Imperatriz",
    "uf": "MA",
    "lat": -5.5269,
    "lon": -47.4914,
    "distancia_fortaleza_km": 1011.9
  },
  {
    "municipio": "Corumbá",
    "uf": "MS",
    "lat": -19.0094,
    "lon": -57.6531,
    "distancia_fortaleza_km": 2683.4
  },
  {
    "municipio": "Ponta Porã",
    "uf": "MS",
    "lat": -22.5361,
    "lon": -55.7256,
    "distancia_fortaleza_km": 2793.4
  },
  {
    "municipio": "Naviraí",
    "uf": "MS",
    "lat": -23.0653,
    "lon": -54.1903,
    "distancia_fortaleza_km": 2731.4
  },
  {
    "municipio": "Campo Grande",
    "uf": "MS",
    "lat": -20.4486,
    "lon": -54.6295,
    "distancia_fortaleza_km": 2548.5
  },
  {
    "municipio": "Três Lagoas",
    "uf": "MS",
    "lat": -20.751,
    "lon": -51.6789,
    "distancia_fortaleza_km": 2368.0
  },
  {
    "municipio": "Paranaíba",
    "uf": "MS",
    "lat": -19.6764,
    "lon": -51.1908,
    "distancia_fortaleza_km": 2243.1
  },
  {
    "municipio": "Dourados",
    "uf": "MS",
    "lat": -22.2231,
    "lon": -54.812,
    "distancia_fortaleza_km": 2703.6
  },
  {
    "municipio": "Cuiabá",
    "uf": "MT",
    "lat": -15.6014,
    "lon": -56.0979,
    "distancia_fortaleza_km": 2331.1
  },
  {
    "municipio": "Cáceres",
    "uf": "MT",
    "lat": -16.0764,
    "lon": -57.6817,
    "distancia_fortaleza_km": 2502.8
  },
  {
    "municipio": "Sinop",
    "uf": "MT",
    "lat": -11.8604,
    "lon": -55.5089,
    "distancia_fortaleza_km": 2075.3
  },
  {
    "municipio": "Barra do Garças",
    "uf": "MT",
    "lat": -15.89,
    "lon": -52.2569,
    "distancia_fortaleza_km": 2020.0
  },
  {
    "municipio": "Rondonópolis",
    "uf": "MT",
    "lat": -16.4706,
    "lon": -54.6356,
    "distancia_fortaleza_km": 2258.3
  },
  {
    "municipio": "Belém",
    "uf": "PA",
    "lat": -1.4558,
    "lon": -48.5039,
    "distancia_fortaleza_km": 1134.6
  },
  {
    "municipio": "Redenção",
    "uf": "PA",
    "lat": -8.0286,
    "lon": -50.0317,
    "distancia_fortaleza_km": 1357.9
  },
  {
    "municipio": "Santarém",
    "uf": "PA",
    "lat": -2.4431,
    "lon": -54.7083,
    "distancia_fortaleza_km": 1800.4
  },
  {
    "municipio": "Altamira",
    "uf": "PA",
    "lat": -3.203,
    "lon": -52.2069,
    "distancia_fortaleza_km": 1517.6
  },
  {
    "municipio": "Marabá",
    "uf": "PA",
    "lat": -5.3689,
    "lon": -49.1175,
    "distancia_fortaleza_km": 1186.4
  },
  {
    "municipio": "Itaituba",
    "uf": "PA",
    "lat": -4.2767,
    "lon": -55.9839,
    "distancia_fortaleza_km": 1935.5
  },
  {
    "municipio": "Brasília",
    "uf": "PF",
    "lat": -15.7942,
    "lon": -47.8822,
    "distancia_fortaleza_km": 1687.2
  },
  {
    "municipio": "Picos",
    "uf": "PI",
    "lat": -7.0775,
    "lon": -41.4669,
    "distancia_fortaleza_km": 494.3
  },
  {
    "municipio": "Guaíra",
    "uf": "PR",
    "lat": -24.085,
    "lon": -54.2569,
    "distancia_fortaleza_km": 2822.9
  },
  {
    "municipio": "Paranaguá",
    "uf": "PR",
    "lat": -25.5161,
    "lon": -48.5089,
    "distancia_fortaleza_km": 2647.3
  },
  {
    "municipio": "Guarapuava",
    "uf": "PR",
    "lat": -25.3935,
    "lon": -51.4569,
    "distancia_fortaleza_km": 2777.2
  },
  {
    "municipio": "Foz do Iguaçu",
    "uf": "PR",
    "lat": -25.5478,
    "lon": -54.5882,
    "distancia_fortaleza_km": 2971.1
  },
  {
    "municipio": "Rio de Janeiro",
    "uf": "RJ",
    "lat": -22.9068,
    "lon": -43.1729,
    "distancia_fortaleza_km": 2191.2
  },
  {
    "municipio": "Nova Iguaçu",
    "uf": "RJ",
    "lat": -22.7595,
    "lon": -43.4509,
    "distancia_fortaleza_km": 2182.3
  },
  {
    "municipio": "Angra dos Reis",
    "uf": "RJ",
    "lat": -23.0067,
    "lon": -44.3181,
    "distancia_fortaleza_km": 2233.1
  },
  {
    "municipio": "Campos dos Goytacazes",
    "uf": "RJ",
    "lat": -21.7642,
    "lon": -41.3289,
    "distancia_fortaleza_km": 2029.1
  },
  {
    "municipio": "Porto Velho",
    "uf": "RO",
    "lat": -8.7619,
    "lon": -63.9039,
    "distancia_fortaleza_km": 2857.6
  },
  {
    "municipio": "Guajará-Mirim",
    "uf": "RO",
    "lat": -10.7828,
    "lon": -65.3417,
    "distancia_fortaleza_km": 3056.3
  },
  {
    "municipio": "Ji-Paraná",
    "uf": "RO",
    "lat": -10.8853,
    "lon": -61.9519,
    "distancia_fortaleza_km": 2700.1
  },
  {
    "municipio": "Vilhena",
    "uf": "RO",
    "lat": -12.7405,
    "lon": -60.1458,
    "distancia_fortaleza_km": 2577.7
  },
  {
    "municipio": "Boa Vista",
    "uf": "RR",
    "lat": 2.8197,
    "lon": -60.6733,
    "distancia_fortaleza_km": 2564.5
  },
  {
    "municipio": "Pacaraima",
    "uf": "RR",
    "lat": 4.4775,
    "lon": -61.1392,
    "distancia_fortaleza_km": 2670.6
  },
  {
    "municipio": "Livramento",
    "uf": "RS",
    "lat": -30.8744,
    "lon": -55.5331,
    "distancia_fortaleza_km": 3505.8
  },
  {
    "municipio": "Uruguaiana",
    "uf": "RS",
    "lat": -29.7547,
    "lon": -57.0883,
    "distancia_fortaleza_km": 3491.9
  },
  {
    "municipio": "Passo Fundo",
    "uf": "RS",
    "lat": -28.2625,
    "lon": -52.4067,
    "distancia_fortaleza_km": 3098.7
  },
  {
    "municipio": "Chuí",
    "uf": "RS",
    "lat": -33.6914,
    "lon": -53.4561,
    "distancia_fortaleza_km": 3673.9
  },
  {
    "municipio": "Jaguarão",
    "uf": "RS",
    "lat": -32.5664,
    "lon": -53.3756,
    "distancia_fortaleza_km": 3560.4
  },
  {
    "municipio": "Santo Ângelo",
    "uf": "RS",
    "lat": -28.3008,
    "lon": -54.2631,
    "distancia_fortaleza_km": 3199.9
  },
  {
    "municipio": "Porto Alegre",
    "uf": "RS",
    "lat": -30.0346,
    "lon": -51.2177,
    "distancia_fortaleza_km": 3215.7
  },
  {
    "municipio": "Bagé",
    "uf": "RS",
    "lat": -31.3314,
    "lon": -54.1067,
    "distancia_fortaleza_km": 3475.8
  },
  {
    "municipio": "Rio Grande",
    "uf": "RS",
    "lat": -32.035,
    "lon": -52.0986,
    "distancia_fortaleza_km": 3452.0
  },
  {
    "municipio": "Santa Maria",
    "uf": "RS",
    "lat": -29.6842,
    "lon": -53.8069,
    "distancia_fortaleza_km": 3304.6
  },
  {
    "municipio": "Santana do Livramento",
    "uf": "RS",
    "lat": -30.8911,
    "lon": -55.5328,
    "distancia_fortaleza_km": 3507.4
  },
  {
    "municipio": "Lages",
    "uf": "SC",
    "lat": -27.8161,
    "lon": -50.3258,
    "distancia_fortaleza_km": 2956.5
  },
  {
    "municipio": "São Paulo",
    "uf": "SP",
    "lat": -23.5505,
    "lon": -46.6333,
    "distancia_fortaleza_km": 2370.4
  },
  {
    "municipio": "Guarulhos",
    "uf": "SP",
    "lat": -23.4625,
    "lon": -46.5333,
    "distancia_fortaleza_km": 2357.4
  },
  {
    "municipio": "Jales",
    "uf": "SP",
    "lat": -20.2683,
    "lon": -50.5458,
    "distancia_fortaleza_km": 2253.4
  },
  {
    "municipio": "Marília",
    "uf": "SP",
    "lat": -22.2139,
    "lon": -49.9458,
    "distancia_fortaleza_km": 2396.1
  },
  {
    "municipio": "Araçatuba",
    "uf": "SP",
    "lat": -21.2089,
    "lon": -50.4328,
    "distancia_fortaleza_km": 2331.1
  },
  {
    "municipio": "Presidente Prudente",
    "uf": "SP",
    "lat": -22.1208,
    "lon": -51.3886,
    "distancia_fortaleza_km": 2471.0
  },
  {
    "municipio": "Palmas",
    "uf": "TO",
    "lat": -10.1842,
    "lon": -48.3336,
    "distancia_fortaleza_km": 1297.5
  },
  {
    "municipio": "Araguaína",
    "uf": "TO",
    "lat": -7.1908,
    "lon": -48.2078,
    "distancia_fortaleza_km": 1137.2
  }
]